<?xml version="1.0" encoding="UTF-8"?>
<kml xmlns="http://earth.google.com/kml/2.1">
<Document>
	<name><![CDATA[Kategória:Kúpele na Slovensku]]></name>
	<open>1</open>
		<Placemark>
			<name><![CDATA[Bardejovské Kúpele]]></name>
			<Point>
				<coordinates>21.270432,49.329861,0</coordinates>
			</Point>
			<Snippet></Snippet>
			<description><![CDATA[<br>Source: Wikipedia article <a href="https://sk.wikipedia.org/wiki/Bardejovské_Kúpele">Bardejovské Kúpele</a>]]></description>
		</Placemark>
		<Placemark>
			<name><![CDATA[Bojnice]]></name>
			<Point>
				<coordinates>18.583056,48.779444,0</coordinates>
			</Point>
			<Snippet></Snippet>
			<description><![CDATA[<br>Source: Wikipedia article <a href="https://sk.wikipedia.org/wiki/Bojnice">Bojnice</a>]]></description>
		</Placemark>
		<Placemark>
			<name><![CDATA[Brusno (kúpele)]]></name>
			<Point>
				<coordinates>19.396362,48.785177,0</coordinates>
			</Point>
			<Snippet></Snippet>
			<description><![CDATA[<br>Source: Wikipedia article <a href="https://sk.wikipedia.org/wiki/Brusno_(kúpele)">Brusno (kúpele)</a>]]></description>
		</Placemark>
		<Placemark>
			<name><![CDATA[Byšta-kúpele]]></name>
			<Point>
				<coordinates>21.553373,48.523553,0</coordinates>
			</Point>
			<Snippet></Snippet>
			<description><![CDATA[<br>Source: Wikipedia article <a href="https://sk.wikipedia.org/wiki/Byšta-kúpele">Byšta-kúpele</a>]]></description>
		</Placemark>
		<Placemark>
			<name><![CDATA[Cemjata]]></name>
			<Point>
				<coordinates>21.174259,48.983834,0</coordinates>
			</Point>
			<Snippet></Snippet>
			<description><![CDATA[<br>Source: Wikipedia article <a href="https://sk.wikipedia.org/wiki/Cemjata">Cemjata</a>]]></description>
		</Placemark>
		<Placemark>
			<name><![CDATA[Dudince]]></name>
			<Point>
				<coordinates>18.889167,48.169444,0</coordinates>
			</Point>
			<Snippet></Snippet>
			<description><![CDATA[<br>Source: Wikipedia article <a href="https://sk.wikipedia.org/wiki/Dudince">Dudince</a>]]></description>
		</Placemark>
		<Placemark>
			<name><![CDATA[Horný Smokovec]]></name>
			<Point>
				<coordinates>20.232567,49.139733,0</coordinates>
			</Point>
			<Snippet></Snippet>
			<description><![CDATA[<br>Source: Wikipedia article <a href="https://sk.wikipedia.org/wiki/Horný_Smokovec">Horný Smokovec</a>]]></description>
		</Placemark>
		<Placemark>
			<name><![CDATA[Korytnica-kúpele]]></name>
			<Point>
				<coordinates>19.285061,48.889242,0</coordinates>
			</Point>
			<Snippet></Snippet>
			<description><![CDATA[<br>Source: Wikipedia article <a href="https://sk.wikipedia.org/wiki/Korytnica-kúpele">Korytnica-kúpele</a>]]></description>
		</Placemark>
		<Placemark>
			<name><![CDATA[Kvetnica (Poprad)]]></name>
			<Point>
				<coordinates>20.284967,49.017564,0</coordinates>
			</Point>
			<Snippet></Snippet>
			<description><![CDATA[<br>Source: Wikipedia article <a href="https://sk.wikipedia.org/wiki/Kvetnica_(Poprad)">Kvetnica (Poprad)</a>]]></description>
		</Placemark>
		<Placemark>
			<name><![CDATA[Kúpele Piešťany]]></name>
			<Point>
				<coordinates>17.8478,48.5926,0</coordinates>
			</Point>
			<Snippet></Snippet>
			<description><![CDATA[<br>Source: Wikipedia article <a href="https://sk.wikipedia.org/wiki/Kúpele_Piešťany">Kúpele Piešťany</a>]]></description>
		</Placemark>
		<Placemark>
			<name><![CDATA[Kúpele Sliač]]></name>
			<Point>
				<coordinates>19.160843,48.611147,0</coordinates>
			</Point>
			<Snippet></Snippet>
			<description><![CDATA[<br>Source: Wikipedia article <a href="https://sk.wikipedia.org/wiki/Kúpele_Sliač">Kúpele Sliač</a>]]></description>
		</Placemark>
		<Placemark>
			<name><![CDATA[Kúpele Szirtalja]]></name>
			<Point>
				<coordinates>21.9312,48.911672,0</coordinates>
			</Point>
			<Snippet></Snippet>
			<description><![CDATA[<br>Source: Wikipedia article <a href="https://sk.wikipedia.org/wiki/Kúpele_Szirtalja">Kúpele Szirtalja</a>]]></description>
		</Placemark>
		<Placemark>
			<name><![CDATA[Kúpele Štós]]></name>
			<Point>
				<coordinates>20.795058,48.717697,0</coordinates>
			</Point>
			<Snippet></Snippet>
			<description><![CDATA[<br>Source: Wikipedia article <a href="https://sk.wikipedia.org/wiki/Kúpele_Štós">Kúpele Štós</a>]]></description>
		</Placemark>
		<Placemark>
			<name><![CDATA[Lúčky (okres Ružomberok)]]></name>
			<Point>
				<coordinates>19.4034,49.127983,0</coordinates>
			</Point>
			<Snippet></Snippet>
			<description><![CDATA[<br>Source: Wikipedia article <a href="https://sk.wikipedia.org/wiki/Lúčky_(okres_Ružomberok)">Lúčky (okres Ružomberok)</a>]]></description>
		</Placemark>
		<Placemark>
			<name><![CDATA[Nimnica]]></name>
			<Point>
				<coordinates>18.3567,49.1391,0</coordinates>
			</Point>
			<Snippet></Snippet>
			<description><![CDATA[<br>Source: Wikipedia article <a href="https://sk.wikipedia.org/wiki/Nimnica">Nimnica</a>]]></description>
		</Placemark>
		<Placemark>
			<name><![CDATA[Nový Smokovec]]></name>
			<Point>
				<coordinates>20.215278,49.137222,0</coordinates>
			</Point>
			<Snippet></Snippet>
			<description><![CDATA[<br>Source: Wikipedia article <a href="https://sk.wikipedia.org/wiki/Nový_Smokovec">Nový Smokovec</a>]]></description>
		</Placemark>
		<Placemark>
			<name><![CDATA[Národné rehabilitačné centrum]]></name>
			<Point>
				<coordinates>19.104023,48.608366,0</coordinates>
			</Point>
			<Snippet></Snippet>
			<description><![CDATA[<br>Source: Wikipedia article <a href="https://sk.wikipedia.org/wiki/Národné_rehabilitačné_centrum">Národné rehabilitačné centrum</a>]]></description>
		</Placemark>
		<Placemark>
			<name><![CDATA[Piešťany]]></name>
			<Point>
				<coordinates>17.833611,48.584167,0</coordinates>
			</Point>
			<Snippet></Snippet>
			<description><![CDATA[<br>Source: Wikipedia article <a href="https://sk.wikipedia.org/wiki/Piešťany">Piešťany</a>]]></description>
		</Placemark>
		<Placemark>
			<name><![CDATA[Rajecké Teplice]]></name>
			<Point>
				<coordinates>18.682778,49.1275,0</coordinates>
			</Point>
			<Snippet></Snippet>
			<description><![CDATA[<br>Source: Wikipedia article <a href="https://sk.wikipedia.org/wiki/Rajecké_Teplice">Rajecké Teplice</a>]]></description>
		</Placemark>
		<Placemark>
			<name><![CDATA[Rožňavské kúpele]]></name>
			<Point>
				<coordinates>20.5422222222222,48.6808333333333,0</coordinates>
			</Point>
			<Snippet></Snippet>
			<description><![CDATA[<br>Source: Wikipedia article <a href="https://sk.wikipedia.org/wiki/Rožňavské_kúpele">Rožňavské kúpele</a>]]></description>
		</Placemark>
		<Placemark>
			<name><![CDATA[Sklené Teplice]]></name>
			<Point>
				<coordinates>18.863,48.528,0</coordinates>
			</Point>
			<Snippet></Snippet>
			<description><![CDATA[<br>Source: Wikipedia article <a href="https://sk.wikipedia.org/wiki/Sklené_Teplice">Sklené Teplice</a>]]></description>
		</Placemark>
		<Placemark>
			<name><![CDATA[Smrdáky]]></name>
			<Point>
				<coordinates>17.3006,48.7231,0</coordinates>
			</Point>
			<Snippet></Snippet>
			<description><![CDATA[<br>Source: Wikipedia article <a href="https://sk.wikipedia.org/wiki/Smrdáky">Smrdáky</a>]]></description>
		</Placemark>
		<Placemark>
			<name><![CDATA[Sobranecké kúpele]]></name>
			<Point>
				<coordinates>22.193284,48.764951,0</coordinates>
			</Point>
			<Snippet></Snippet>
			<description><![CDATA[<br>Source: Wikipedia article <a href="https://sk.wikipedia.org/wiki/Sobranecké_kúpele">Sobranecké kúpele</a>]]></description>
		</Placemark>
		<Placemark>
			<name><![CDATA[Tatranská Kotlina]]></name>
			<Point>
				<coordinates>20.31915,49.2275,0</coordinates>
			</Point>
			<Snippet></Snippet>
			<description><![CDATA[<br>Source: Wikipedia article <a href="https://sk.wikipedia.org/wiki/Tatranská_Kotlina">Tatranská Kotlina</a>]]></description>
		</Placemark>
		<Placemark>
			<name><![CDATA[Trenčianske Teplice]]></name>
			<Point>
				<coordinates>18.166111,48.910556,0</coordinates>
			</Point>
			<Snippet></Snippet>
			<description><![CDATA[<br>Source: Wikipedia article <a href="https://sk.wikipedia.org/wiki/Trenčianske_Teplice">Trenčianske Teplice</a>]]></description>
		</Placemark>
		<Placemark>
			<name><![CDATA[Turčianske Teplice]]></name>
			<Point>
				<coordinates>18.863611,48.858889,0</coordinates>
			</Point>
			<Snippet></Snippet>
			<description><![CDATA[<br>Source: Wikipedia article <a href="https://sk.wikipedia.org/wiki/Turčianske_Teplice">Turčianske Teplice</a>]]></description>
		</Placemark>
		<Placemark>
			<name><![CDATA[Vysoké Tatry (mesto)]]></name>
			<Point>
				<coordinates>20.2275,49.1475,0</coordinates>
			</Point>
			<Snippet></Snippet>
			<description><![CDATA[<br>Source: Wikipedia article <a href="https://sk.wikipedia.org/wiki/Vysoké_Tatry_(mesto)">Vysoké Tatry (mesto)</a>]]></description>
		</Placemark>
		<Placemark>
			<name><![CDATA[Vyšné Hágy]]></name>
			<Point>
				<coordinates>20.1241666666667,49.1186111111111,0</coordinates>
			</Point>
			<Snippet></Snippet>
			<description><![CDATA[<br>Source: Wikipedia article <a href="https://sk.wikipedia.org/wiki/Vyšné_Hágy">Vyšné Hágy</a>]]></description>
		</Placemark>
		<Placemark>
			<name><![CDATA[Vyšné Hágy]]></name>
			<Point>
				<coordinates>20.124656,49.12404,0</coordinates>
			</Point>
			<Snippet></Snippet>
			<description><![CDATA[<br>Source: Wikipedia article <a href="https://sk.wikipedia.org/wiki/Vyšné_Hágy">Vyšné Hágy</a>]]></description>
		</Placemark>
		<Placemark>
			<name><![CDATA[Vyšné Hágy]]></name>
			<Point>
				<coordinates>20.128444,49.114196,0</coordinates>
			</Point>
			<Snippet></Snippet>
			<description><![CDATA[<br>Source: Wikipedia article <a href="https://sk.wikipedia.org/wiki/Vyšné_Hágy">Vyšné Hágy</a>]]></description>
		</Placemark>
		<Placemark>
			<name><![CDATA[Vyšné Ružbachy]]></name>
			<Point>
				<coordinates>20.5663,49.3032,0</coordinates>
			</Point>
			<Snippet></Snippet>
			<description><![CDATA[<br>Source: Wikipedia article <a href="https://sk.wikipedia.org/wiki/Vyšné_Ružbachy">Vyšné Ružbachy</a>]]></description>
		</Placemark>
		<Placemark>
			<name><![CDATA[Ľubovnianske kúpele]]></name>
			<Point>
				<coordinates>20.728455,49.260268,0</coordinates>
			</Point>
			<Snippet></Snippet>
			<description><![CDATA[<br>Source: Wikipedia article <a href="https://sk.wikipedia.org/wiki/Ľubovnianske_kúpele">Ľubovnianske kúpele</a>]]></description>
		</Placemark>
</Document>
</kml>
